{"house_elev": 370.62, "sites": [{"id": "504168", "lat": 45.33222, "lon": 5.06278, "h": 53, "nature": "B\u00e2timent", "commune": "BEAUREPAIRE", "dist": 7.04, "brg": 291, "dir": "ONO", "ops": {"Bouygues": ["2G", "3G", "4G", "5G"], "SFR": ["2G", "3G", "4G", "5G"]}, "elev": 258.51}, {"id": "591912", "lat": 45.29861, "lon": 5.23917, "h": 32, "nature": "Pyl\u00f4ne autostable", "commune": "MARNANS", "dist": 7.32, "brg": 100, "dir": "E", "ops": {"Bouygues": ["3G", "4G"], "Orange": ["3G", "4G"], "SFR": ["2G", "3G", "4G"], "Free": ["3G", "4G"]}, "elev": 573.59}, {"id": "624487", "lat": 45.32806, "lon": 5.11972, "h": 35, "nature": "Ch\u00e2teau d'eau - r\u00e9servoir", "commune": "BEAUFORT", "dist": 2.94, "brg": 313, "dir": "NO", "ops": {"Orange": ["2G", "3G", "4G", "5G"], "Free": ["4G", "5G"]}, "elev": 366.85}, {"id": "688339", "lat": 45.32528, "lon": 5.05361, "h": 30, "nature": "Pyl\u00f4ne autostable", "commune": "BEAUREPAIRE", "dist": 7.5, "brg": 283, "dir": "ONO", "ops": {"Orange": ["2G", "3G", "4G", "5G"], "Free": ["4G", "5G"]}, "elev": 254.74}, {"id": "760207", "lat": 45.26556, "lon": 5.23833, "h": 22, "nature": "Pyl\u00f4ne autostable", "commune": "ROYBON", "dist": 8.68, "brg": 125, "dir": "SE", "ops": {"Orange": ["2G", "3G", "4G"]}, "elev": 589.91}, {"id": "1316162", "lat": 45.31639, "lon": 5.20667, "h": 20, "nature": "Pyl\u00f4ne tubulaire", "commune": "VIRIVILLE", "dist": 4.72, "brg": 81, "dir": "E", "ops": {"Bouygues": ["2G", "3G", "4G", "5G"], "SFR": ["2G", "3G", "4G", "5G"]}, "elev": 373.74}, {"id": "1560353", "lat": 45.27167, "lon": 5.045, "h": 18, "nature": "Pyl\u00f4ne autostable", "commune": "HAUTERIVES", "dist": 9.04, "brg": 242, "dir": "OSO", "ops": {"Orange": ["2G", "3G", "4G", "5G"]}, "elev": 440.17}, {"id": "1584007", "lat": 45.2525, "lon": 5.04778, "h": 30, "nature": "Pyl\u00f4ne tubulaire", "commune": "HAUTERIVES", "dist": 10.05, "brg": 231, "dir": "SO", "ops": {"Bouygues": ["2G", "3G", "4G", "5G"], "SFR": ["2G", "3G", "4G", "5G"], "Free": ["4G", "5G"]}, "elev": 403.66}, {"id": "1675273", "lat": 45.26944, "lon": 5.11056, "h": 17, "nature": "Ch\u00e2teau d'eau - r\u00e9servoir", "commune": "GRAND SERRE", "dist": 5.32, "brg": 212, "dir": "SSO", "ops": {"Bouygues": ["2G", "3G", "4G", "5G"], "SFR": ["2G", "3G", "4G", "5G"], "Free": ["4G", "5G"]}, "elev": 463.48}, {"id": "1689267", "lat": 45.24806, "lon": 5.22972, "h": 24, "nature": "Pyl\u00f4ne autostable", "commune": "ROYBON", "dist": 9.44, "brg": 137, "dir": "SE", "ops": {"Bouygues": ["2G", "3G", "4G"], "SFR": ["2G", "3G", "4G"], "Free": ["4G", "5G"]}, "elev": 610.9}, {"id": "1732577", "lat": 45.25194, "lon": 5.1625, "h": 16, "nature": "Pyl\u00f4ne autostable", "commune": "MONTFALCON", "dist": 6.56, "brg": 169, "dir": "S", "ops": {"Bouygues": ["2G", "3G", "4G"], "Orange": ["3G", "4G"], "SFR": ["3G", "4G"], "Free": ["3G", "4G"]}, "elev": 476.46}, {"id": "1732624", "lat": 45.30083, "lon": 5.105, "h": 32, "nature": "Pyl\u00f4ne autostable", "commune": "LENTIOL", "dist": 3.43, "brg": 253, "dir": "OSO", "ops": {"Bouygues": ["2G", "3G", "4G"], "Orange": ["3G", "4G"], "SFR": ["3G", "4G"], "Free": ["3G", "4G"]}, "elev": 425.09}, {"id": "2258368", "lat": 45.26944, "lon": 5.09972, "h": 12, "nature": "Pyl\u00f4ne autostable", "commune": "GRAND SERRE", "dist": 5.82, "brg": 219, "dir": "SO", "ops": {"Orange": ["3G", "4G"]}, "elev": 449.55}, {"id": "2318460", "lat": 45.26333, "lon": 5.23806, "h": 16, "nature": "Pyl\u00f4ne autostable", "commune": "ROYBON", "dist": 8.81, "brg": 126, "dir": "SE", "ops": {"Bouygues": ["2G", "3G", "4G"], "SFR": ["2G", "3G", "4G"], "Free": ["4G", "5G"]}, "elev": 566.94}, {"id": "2522147", "lat": 45.37167, "lon": 5.13583, "h": 39, "nature": "Pyl\u00f4ne autostable", "commune": "PAJAY", "dist": 6.92, "brg": 353, "dir": "N", "ops": {"Orange": ["3G", "4G", "5G"], "Free": ["4G", "5G"]}, "elev": 404.7}, {"id": "2628556", "lat": 45.3475, "lon": 5.05056, "h": 36, "nature": "Pyl\u00f4ne autostable", "commune": "BEAUREPAIRE", "dist": 8.62, "brg": 299, "dir": "ONO", "ops": {"Orange": ["3G", "4G", "5G"], "Free": ["4G", "5G"]}, "elev": 295.85}, {"id": "2662410", "lat": 45.28194, "lon": 5.20917, "h": 45, "nature": "Pyl\u00f4ne autostable", "commune": "VIRIVILLE", "dist": 5.77, "brg": 123, "dir": "ESE", "ops": {"Bouygues": ["3G", "4G"], "Orange": ["3G", "4G"], "SFR": ["3G", "4G"], "Free": ["3G", "4G"]}, "elev": 566.23}, {"id": "2913797", "lat": 45.23583, "lon": 5.09694, "h": 33, "nature": "Pyl\u00f4ne autostable", "commune": "GRAND SERRE", "dist": 9.12, "brg": 205, "dir": "SSO", "ops": {"Bouygues": ["3G", "4G"], "Orange": ["3G", "4G"], "SFR": ["3G", "4G"], "Free": ["3G", "4G"]}, "elev": 504.47}, {"id": "3024927", "lat": 45.31639, "lon": 5.20667, "h": 25, "nature": "Pyl\u00f4ne autostable", "commune": "VIRIVILLE", "dist": 4.72, "brg": 81, "dir": "E", "ops": {"Orange": ["3G", "4G", "5G"], "Free": ["4G", "5G"]}, "elev": 373.74}, {"id": "3104272", "lat": 45.34611, "lon": 5.05167, "h": 30, "nature": "Pyl\u00f4ne autostable", "commune": "BEAUREPAIRE", "dist": 8.47, "brg": 298, "dir": "ONO", "ops": {"Bouygues": ["4G", "5G"], "SFR": ["3G", "4G", "5G"]}, "elev": 296.89}, {"id": "3123304", "lat": 45.37, "lon": 5.19972, "h": 36, "nature": "Pyl\u00f4ne autostable", "commune": "SARDIEU", "dist": 7.85, "brg": 32, "dir": "NNE", "ops": {"Bouygues": ["4G", "5G"], "SFR": ["4G", "5G"]}, "elev": 353.89}, {"id": "3169161", "lat": 45.34444, "lon": 5.20639, "h": 42, "nature": "Pyl\u00f4ne autostable", "commune": "MARCILLOLES", "dist": 6.03, "brg": 50, "dir": "NE", "ops": {"Bouygues": ["4G", "5G"], "SFR": ["4G", "5G"]}, "elev": 319.99}]}